[
	{
		"id": "5b2f3c6e-6093-4ca8-9ecb-3a9441f2006d",
		"name": "Birmingham Reformed Presbyterian Church",
		"denom": "RPCNA",
		"phone": "662-418-0591",
		"emai": "birmingham.reformed@gmail.com",
		"website": "https://birmingham-reformed.org",
		"pastor": "Contact: Greg W. Burgreen",
		"address": "Meeting at: 100 Chase Park S, Office Suite 220, Hoover, AL 35244",
		"date": "5/12/2021",
		"lat": "33.3538",
		"long": "-86.8254"
	},
	{
		"id": "f6a489b5-085e-4b07-a252-86a88fb4760b",
		"name": "College Hill Reformed Church",
		"denom": "RPCNA",
		"phone": "724-384-1028",
		"emai": "info@collegehillreformed.com",
		"website": "https://www.collegehillreformed.com",
		"pastor": "Titus Martin",
		"address": "3217 College Ave, Beaver Falls, PA 15010",
		"date": "5/12/2021",
		"lat": "40.7687",
		"long": "-80.3592"
	},
	{
		"id": "d5d1ba1b-71ac-4485-a187-7ad8abb4b1de",
		"name": "Covenant Fellowship RP Church",
		"denom": "RPCNA",
		"phone": "412-371-6118",
		"emai": "CovenantFellowshipRPCNA@gmail.com",
		"website": "https://www.covenantfellowship.org",
		"pastor": "Peter Smith",
		"address": "1300 Swissvale Av., Pittsburgh, PA 15221-1836",
		"date": "5/12/2021",
		"lat": "40.4346",
		"long": "-79.8655"
	},
	{
		"id": "29d9b8fd-baec-48d8-9c4f-b3c3cb4c33be",
		"name": "Covenant Reformed Presbyterian Church",
		"denom": "RPCNA",
		"phone": "330-554-4260",
		"emai": "clerk@covenantrpcohio.org",
		"website": "https://covenantrpcohio.org",
		"pastor": "Vacant",
		"address": "8465 Bainbridge Rd (Meeting in the Burns-Lindow Building), Chagrin Falls, OH 44023",
		"date": "5/12/2021",
		"lat": "41.3872",
		"long": "-81.3042"
	},
	{
		"id": "f827dd38-6401-4120-995f-e164b0647bb6",
		"name": "Covenant RP Church of Meadville",
		"denom": "RPCNA",
		"phone": "814-573-2787",
		"emai": "meadvillerpc@gmail.com",
		"website": "https://www.meadvillerpc.org",
		"pastor": "Gary Gunn",
		"address": "Meeting at Emmanuel United Church of Christ 30 Park Avenue, Meadville, PA 16335",
		"date": "5/12/2021",
		"lat": "41.6338",
		"long": "-80.1488"
	},
	{
		"id": "25a4e944-0e2e-4929-a538-59ef4d58ec46",
		"name": "Eastvale RP Church",
		"denom": "RPCNA",
		"phone": "724-847-2080",
		"emai": "pastor.micah.ramsey@gmail.com",
		"website": "https://sermonaudio.com/solo/eastvale/",
		"pastor": "Micah Ramsey",
		"address": "504 E Second Ave, Beaver Falls, PA 15010",
		"date": "5/12/2021",
		"lat": "40.7687",
		"long": "-80.3592"
	},
	{
		"id": "1e82e76f-e83c-433e-821a-8cd12ead0621",
		"name": "First RP Church of Beaver Falls",
		"denom": "RPCNA",
		"phone": "724-846-6877",
		"emai": "reformedmissions@gmail.com",
		"website": "https://www.firstrpchurch.org",
		"pastor": "Tim McClain",
		"address": "209 Darlington Rd., Beaver Falls, PA 15010",
		"date": "5/12/2021",
		"lat": "40.7687",
		"long": "-80.3592"
	},
	{
		"id": "9a13fbc2-146a-4965-aeab-5b6b4771964c",
		"name": "Grace &amp; Truth RP Church",
		"denom": "RPCNA",
		"phone": "434-509-8698",
		"emai": "info@GraceAndTruthRPC.org",
		"website": "https://www.GraceAndTruthRPC.org",
		"pastor": "Paul Martin",
		"address": "Good Shepherd School 342 Neff Ave, Harrisonburg, VA 22801",
		"date": "5/12/2021",
		"lat": "38.4489",
		"long": "-78.8714"
	},
	{
		"id": "43f597d2-8da8-4cc0-bd88-c936c7aea1ec",
		"name": "Grace Presbyterian Church",
		"denom": "RPCNA",
		"phone": "814-237-2637",
		"emai": "gracepresbyterianstatecollege@gmail.com",
		"website": "https://gracerpc.org",
		"pastor": "Trace Turner",
		"address": "370 Airport Rd., State College, PA 16801",
		"date": "5/12/2021",
		"lat": "40.7925",
		"long": "-77.8523"
	},
	{
		"id": "3d1a8444-f5c0-4f40-8a29-6c5da3e9f9d4",
		"name": "Grace Reformed Presbyterian Church",
		"denom": "RPCNA",
		"phone": "724-473-3449",
		"emai": "gracerpchurchingibsonia@gmail.com",
		"website": "https://graceingibsonia.org",
		"pastor": "Jeff Stivason",
		"address": "3916 Bakerstown Rd, Gibsonia, PA 15044",
		"date": "5/12/2021",
		"lat": "40.6252",
		"long": "-79.9443"
	},
	{
		"id": "00bfeb95-5a80-42f0-b72f-5cf6497d7dfe",
		"name": "Hope Community RP Church",
		"denom": "RPCNA",
		"phone": "724-843-4840",
		"emai": "info@hopecommunityrpc.com",
		"website": "https://hopecommunityrpc.com",
		"pastor": "George Gregory",
		"address": "3400 5th Ave, Beaver Falls, PA 15010",
		"date": "5/12/2021",
		"lat": "40.7687",
		"long": "-80.3592"
	},
	{
		"id": "2b0bcee8-3279-44d2-ab7c-65536bea4771",
		"name": "Manchester RP Church",
		"denom": "RPCNA",
		"phone": "724-339-1551",
		"emai": "revscavo@yahoo.com",
		"website": "https://www.manchesterrpchurch.org",
		"pastor": "Vince Scavo",
		"address": "204 Manchester Hill Rd., New Kensington, PA 15068",
		"date": "5/12/2021",
		"lat": "40.5616",
		"long": "-79.7129"
	},
	{
		"id": "713c5040-502c-4996-88cd-af111201d49d",
		"name": "Providence RP Church",
		"denom": "RPCNA",
		"phone": "412-401-2424",
		"emai": "bygracealone@verizon.net",
		"website": "https://www.providencerpchurch.com",
		"pastor": "C. J. Williams",
		"address": "2001 Pioneer Ave., Pittsburgh, PA 15226",
		"date": "5/12/2021",
		"lat": "40.4001",
		"long": "-80.0161"
	},
	{
		"id": "d79b50c3-3b54-4fa3-a51a-43c54a251d6f",
		"name": "Rimersburg RP Church",
		"denom": "RPCNA",
		"phone": "814-229-9670",
		"emai": "johnwmonger@gmail.com",
		"website": "",
		"pastor": "John W. Monger",
		"address": "946 N. Main St., Rimersburg, PA 16248",
		"date": "5/12/2021",
		"lat": "41.0411",
		"long": "-79.5017"
	},
	{
		"id": "b79086bf-7e5f-4bfc-b37a-f211a02883d4",
		"name": "Rose Point RP Church",
		"denom": "RPCNA",
		"phone": "724-924-9519",
		"emai": "cabrown@ymail.com",
		"website": "https://rosepointrpc.org",
		"pastor": "Charles Brown",
		"address": "1166 Church Alle., New Castle, PA 16101",
		"date": "5/12/2021",
		"lat": "40.9922",
		"long": "-80.3284"
	},
	{
		"id": "9255c6ff-a3b9-4322-a7a8-3755fd71fa24",
		"name": "RP Church of North Hills",
		"denom": "RPCNA",
		"phone": "412-486-1167",
		"emai": "RevHMetz@aol.com",
		"website": "https://rpcnh.org",
		"pastor": "Martin Blocki",
		"address": "606 Thompson Run Rd., Pittsburgh, PA 15237",
		"date": "5/12/2021",
		"lat": "40.5488",
		"long": "-80.0474"
	},
	{
		"id": "ab901584-8828-4563-a7b8-53ce9188b497",
		"name": "Trinity RP Church",
		"denom": "RPCNA",
		"phone": "620-204-0222",
		"emai": "joelenochwood@gmail.com",
		"website": "https://trinityrpc.org",
		"pastor": "Dr. Joel Wood",
		"address": "4515 Sandy Spring Road, Burtonsville, MD 20866",
		"date": "5/12/2021",
		"lat": "39.0922",
		"long": "-76.9339"
	},
	{
		"id": "7f90bf1f-614e-47c7-a0f6-037d66c441ed",
		"name": "Tusca Area RP Church",
		"denom": "RPCNA",
		"phone": "724-495-6811",
		"emai": "jwatt@geneva.edu",
		"website": "https://www.tuscachurch.org",
		"pastor": "Jonathan Watt",
		"address": "Corner of Darlington and Chapel Rd., Beaver, PA 15009",
		"date": "5/12/2021",
		"lat": "40.6972",
		"long": "-80.3365"
	},
	{
		"id": "22a25ac2-5f1c-4e8f-83e9-c6e376466483",
		"name": "Broomall RP Church",
		"denom": "RPCNA",
		"phone": "610-353-1371",
		"emai": "pastor@broomallrpc.org",
		"website": "https://www.broomallrpc.org",
		"pastor": "Alex Tabaka",
		"address": "25 Lawrence Rd., Broomall, PA 19008",
		"date": "5/12/2021",
		"lat": "39.9747",
		"long": "-75.3602"
	},
	{
		"id": "e2519792-76fd-4c6b-9e4f-e8ed50d3a840",
		"name": "Christ RP Church",
		"denom": "RPCNA",
		"phone": "401-709-4678",
		"emai": "pastor@christrpc.com",
		"website": "https://www.christrpc.com  ",
		"pastor": "Daniel Howe",
		"address": "Meeting at: St. Mary's Episcopal Church (side door) 81 Warren Ave., East Providence, RI 02914",
		"date": "5/12/2021",
		"lat": "41.8138",
		"long": "-71.3688"
	},
	{
		"id": "a1a693c2-1e79-41d1-9c3f-76ed6cbf010f",
		"name": "Coldenham-Newburgh RP Church",
		"denom": "RPCNA",
		"phone": "845-564-3924",
		"emai": "pashafer@gmail.com",
		"website": "https://coldenhamchurch.org",
		"pastor": "vacant (Stated Supply) Zachary Dotson",
		"address": "469 Coldenham Rd., Walden, NY 12586",
		"date": "5/12/2021",
		"lat": "41.5596",
		"long": "-74.1764"
	},
	{
		"id": "2d58637a-6498-4b0f-8ef2-e0895dd4ae5a",
		"name": "Elkins Park RP Church",
		"denom": "RPCNA",
		"phone": "215-460-2391",
		"emai": "pastor@elkinsparkchurch.com",
		"website": "https://www.elkinsparkchurch.com",
		"pastor": "John Edgar",
		"address": "901 Cypress Ave., Elkins Park, PA 19027",
		"date": "5/12/2021",
		"lat": "40.075",
		"long": "-75.1315"
	},
	{
		"id": "3d04e2ea-c953-41cd-bfcf-60151f46147b",
		"name": "First RP Church of Cambridge",
		"denom": "RPCNA",
		"phone": "617-864-3185",
		"emai": "Session@reformedprescambridge.com",
		"website": "https://www.reformedprescambridge.com",
		"pastor": "Noah Bailey",
		"address": "53 Antrim St., Cambridge, MA 02139",
		"date": "5/12/2021",
		"lat": "42.3647",
		"long": "-71.1042"
	},
	{
		"id": "4cf943b4-3b8c-497a-a1e6-8a39b3a108d9",
		"name": "Hazleton Area RP Church",
		"denom": "RPCNA",
		"phone": "570-578-5243",
		"emai": "ps110_1@hotmail.com",
		"website": "https://nepachurches.org",
		"pastor": "Paul Brace",
		"address": "680 Roosevelt St., Hazleton, PA 18201",
		"date": "5/12/2021",
		"lat": "40.9488",
		"long": "-75.9563"
	},
	{
		"id": "bbf61e0c-aa23-4712-9104-72553f41e5b3",
		"name": "Ridgefield Park RP Church",
		"denom": "RPCNA",
		"phone": "201-440-5993",
		"emai": "",
		"website": "https://www.rpc-nj.org",
		"pastor": "Vacant",
		"address": "310 Main St., Ridgefield Park, NJ 07660",
		"date": "5/12/2021",
		"lat": "40.8562",
		"long": "-74.023"
	},
	{
		"id": "dc6f3827-9704-4b9f-8e6a-001e1a58e89d",
		"name": "Walton RP Church",
		"denom": "RPCNA",
		"phone": "607-865-6481",
		"emai": "pastor@waltonrpc.org",
		"website": "https://www.waltonrpc.org",
		"pastor": "",
		"address": "East & Bruce Sts., Walton, NY 13856",
		"date": "5/12/2021",
		"lat": "42.1756",
		"long": "-75.1532"
	},
	{
		"id": "50750b33-db43-4723-a988-fe699fe5a0a6",
		"name": "White Lake RP Church",
		"denom": "RPCNA",
		"phone": "845-583-7082",
		"emai": "dcoon2@hvc.rr.com",
		"website": "https://www.whitelakechurch.com",
		"pastor": "David C. Coon",
		"address": "6 Mattison Rd., White Lake, NY 12786",
		"date": "5/12/2021",
		"lat": "41.6485",
		"long": "-74.8654"
	},
	{
		"id": "ef1017e8-4036-4c78-aacc-64622553ac37",
		"name": "Atlanta RP (Mission) Church",
		"denom": "RPCNA",
		"phone": "770-241-3946",
		"emai": "franksmith76@gmail.com",
		"website": "https://atlanta-rpc.org",
		"pastor": "Dr. Frank J. Smith",
		"address": "Meeting at: 574 Western Avenue NW, Atlanta, GA 30314",
		"date": "5/12/2021",
		"lat": "33.7561",
		"long": "-84.4255"
	},
	{
		"id": "aa00ec93-74a9-42a2-9deb-aea190ca067b",
		"name": "Belle Center RP Church",
		"denom": "RPCNA",
		"phone": "937-464-6851",
		"emai": "covvie@columbus.rr.com",
		"website": "https://www.bcrpchurch.org",
		"pastor": "Philip Pockras",
		"address": "102 E. Main St., Belle Center, OH 43310",
		"date": "5/12/2021",
		"lat": "40.5024",
		"long": "-83.7688"
	},
	{
		"id": "b75fbffa-6bd7-4331-882c-692f53d93b51",
		"name": "Bloomington RP Church",
		"denom": "RPCNA",
		"phone": "812-339-1922",
		"emai": "rholdema@indiana.edu",
		"website": "https://www.bloomingtonrpchurch.org",
		"pastor": "Rich Holdeman and Philip McCollum",
		"address": "302 E. First Street, Bloomington, IN 47401",
		"date": "5/12/2021",
		"lat": "39.1401",
		"long": "-86.5083"
	},
	{
		"id": "a34b64a4-1534-4d5f-89e9-7f03a9202edf",
		"name": "Christ Church RP",
		"denom": "RPCNA",
		"phone": "317-456-2551",
		"emai": "pastor@ccrp.church",
		"website": "https://www.ccrp.church",
		"pastor": "",
		"address": "5075 N. Raceway Road, Indianapolis, IN 46234",
		"date": "5/12/2021",
		"lat": "39.8088",
		"long": "-86.3163"
	},
	{
		"id": "2fa122c9-75db-4f69-acca-d27b3e2010bb",
		"name": "Elkhart RP Church",
		"denom": "RPCNA",
		"phone": "574-293-1772",
		"emai": "wademann@elkhartrpc.org",
		"website": "https://www.elkhartrpc.org",
		"pastor": "Wade Mann",
		"address": "2323 17th St, Elkhart, IN 46517",
		"date": "5/12/2021",
		"lat": "41.6469",
		"long": "-85.9728"
	},
	{
		"id": "c2cc3661-6e7f-4126-8d2e-b0799a46592e",
		"name": "First RP Church of Grand Rapids",
		"denom": "RPCNA",
		"phone": "616-644-3160",
		"emai": "craig.scott1560@hotmail.co.uk",
		"website": "",
		"pastor": "Craig Scott",
		"address": "Puritan Reformed Theological Seminary 2965 Leonard Street NE, Grand Rapids, MI 49525",
		"date": "5/12/2021",
		"lat": "43.0135",
		"long": "-85.6027"
	},
	{
		"id": "7f6c3bf5-f1d9-4eae-8c8c-a18e7a0cdfca",
		"name": "First RPC of Durham",
		"denom": "RPCNA",
		"phone": "919-908-8327",
		"emai": "kentbutterfield@yahoo.com",
		"website": "https://www.firstrpcdurham.org",
		"pastor": "Kent Butterfield",
		"address": "1316 Watts St., Durham, NC 27701",
		"date": "5/12/2021",
		"lat": "35.9967",
		"long": "-78.8966"
	},
	{
		"id": "780d5cb2-111c-4f78-b206-bac4229222bd",
		"name": "Hetherton RP Church",
		"denom": "RPCNA",
		"phone": "989-786-3188",
		"emai": "revmorton@frontier.com",
		"website": "",
		"pastor": "Raymond Morton",
		"address": "1200 Meridian Line Rd., Johannesburg, MI 49751",
		"date": "5/12/2021",
		"lat": "45.0152",
		"long": "-84.3857"
	},
	{
		"id": "a11ba524-e92a-4308-b494-a61334e3d3d0",
		"name": "Immanuel RP Church",
		"denom": "RPCNA",
		"phone": "765-320-0077",
		"emai": "jared@immanuelrpc.com",
		"website": "https://www.immanuelrpc.com",
		"pastor": "Jared Olivetti",
		"address": "1893 E 600 N, West Lafayette, IN 47906",
		"date": "5/12/2021",
		"lat": "40.444",
		"long": "-86.9237"
	},
	{
		"id": "23991b59-5054-40c3-80bd-4e95fa3aff02",
		"name": "Louisville RP Fellowship",
		"denom": "RPCNA",
		"phone": "(502) 443-3705",
		"emai": "",
		"website": "https://columbusrpc.org/Louisville/",
		"pastor": "",
		"address": "Meeting at: Shively Worship Center 1810 Appleton Ln, Louisville, KY 40216",
		"date": "5/12/2021",
		"lat": "38.1865",
		"long": "-85.8335"
	},
	{
		"id": "b580d837-551d-4a1c-b74e-99f181b871a8",
		"name": "Marion RP Church",
		"denom": "RPCNA",
		"phone": "765-419-2700",
		"emai": "jcamery@hotmail.com",
		"website": "https://marionrpc.com",
		"pastor": "Jason Camery",
		"address": "1100 West Jeffras Ave, Marion, IN 46952",
		"date": "5/12/2021",
		"lat": "40.5743",
		"long": "-85.6741"
	},
	{
		"id": "2b11023f-794e-403e-b4ad-c74123319d0e",
		"name": "Orlando RP Church",
		"denom": "RPCNA",
		"phone": "407-843-4361",
		"emai": "rpcorlando@gmail.com",
		"website": "https://www.OrlandoRPC.org",
		"pastor": "H.P. McCracken",
		"address": "324 E. Livingston St., Orlando, FL 32801",
		"date": "5/12/2021",
		"lat": "28.5399",
		"long": "-81.3727"
	},
	{
		"id": "2de19cce-41d1-44cc-9f07-e826ab336e1d",
		"name": "Pageland RP (Mission) Church",
		"denom": "RPCNA",
		"phone": "843.517.2088",
		"emai": "PagelandRPC@gmail.com",
		"website": "",
		"pastor": "Vacant",
		"address": "222 S. Van Lingle Mungo Blvd, Pageland, SC 29728",
		"date": "5/12/2021",
		"lat": "34.7722",
		"long": "-80.3966"
	},
	{
		"id": "13fb4c37-e19f-4c13-b939-787f3cad5bc8",
		"name": "RP Church of Columbus",
		"denom": "RPCNA",
		"phone": "812-378-3003",
		"emai": "info@columbusrpc.org",
		"website": "https://columbusrpc.org",
		"pastor": "Joel Hart",
		"address": "550 N. National Rd., Columbus, IN 47201-7815",
		"date": "5/12/2021",
		"lat": "39.2055",
		"long": "-85.9317"
	},
	{
		"id": "505ebc6b-f39b-4289-898b-e942c23e9109",
		"name": "RP Church of Lafayette",
		"denom": "RPCNA",
		"phone": "765-474-3307",
		"emai": "info@reformedlafayette.com, adamniess@reformedlafayette.com",
		"website": "https://www.reformedlafayette.com",
		"pastor": "Adam Niess",
		"address": "1723 South 9th St., Lafayette, IN 47905",
		"date": "5/12/2021",
		"lat": "40.4001",
		"long": "-86.8602"
	},
	{
		"id": "837a943a-c1e9-4a6c-8a54-c0fc1992a9f9",
		"name": "RP Church of Southside Indianapolis",
		"denom": "RPCNA",
		"phone": "317-787-1211",
		"emai": "office@ssrpc.org",
		"website": "https://www.ssrpc.org",
		"pastor": "Ian Wise",
		"address": "6969 S. Meridian St., Indianapolis, IN 46217",
		"date": "5/12/2021",
		"lat": "39.6782",
		"long": "-86.1976"
	},
	{
		"id": "6a25a959-ea5b-4415-82b1-2e57e6679f3e",
		"name": "Second Indianapolis RP Church",
		"denom": "RPCNA",
		"phone": "317-255-7557",
		"emai": "office@2RP.church",
		"website": "https://2rp.church",
		"pastor": "James Faris",
		"address": "4800 N. Michigan Rd., Indianapolis, IN 46228",
		"date": "5/12/2021",
		"lat": "39.8462",
		"long": "-86.1951"
	},
	{
		"id": "694954e1-5174-46ae-929d-72f8b1d2f3be",
		"name": "Selma RP Church",
		"denom": "RPCNA",
		"phone": "334-875-7692",
		"emai": "gevans44@bellsouth.net",
		"website": "",
		"pastor": "",
		"address": "627 J.L. Chestnut Jr Blvd, Selma, AL 36701",
		"date": "5/12/2021",
		"lat": "32.4197",
		"long": "-87.0245"
	},
	{
		"id": "e5bcd0ee-9915-4b18-81c5-b71d6f9f89f4",
		"name": "Southfield RP Church",
		"denom": "RPCNA",
		"phone": "248-356-3932",
		"emai": "srpcinfo@reformed.com",
		"website": "https://reformed.com",
		"pastor": "Adam Kuehner",
		"address": "26550 Evergreen Rd., Southfield, MI 48076",
		"date": "5/12/2021",
		"lat": "42.4981",
		"long": "-83.2058"
	},
	{
		"id": "ed19a159-1994-4387-91ed-489849a8ccf9",
		"name": "Southwest Ohio RP Church",
		"denom": "RPCNA",
		"phone": "937-750-9459",
		"emai": "info@swohiorpc.org",
		"website": "https://reformedohio.com",
		"pastor": "Dick Knodel",
		"address": "Meeting at Mars Hill Academy 4230 Aero Drive, Mason, OH 45040",
		"date": "5/12/2021",
		"lat": "39.3357",
		"long": "-84.3149"
	},
	{
		"id": "8bfcdb04-629e-465b-888d-d8efd5cc0b0a",
		"name": "Sparta RP Church",
		"denom": "RPCNA",
		"phone": "618-443-4435",
		"emai": "james.odom@covenanthome.com",
		"website": "https://sparta.rpc.org",
		"pastor": "Ross Fearing",
		"address": "605 North Market St., Sparta, IL 62286",
		"date": "5/12/2021",
		"lat": "38.1318",
		"long": "-89.7035"
	},
	{
		"id": "6e00bdcf-52e5-4834-8a04-9460e72497f0",
		"name": "Sycamore RP Church",
		"denom": "RPCNA",
		"phone": "765-854-0850",
		"emai": "shawn.anderson@yahoo.com",
		"website": "https://www.sycamorerpc.org",
		"pastor": "Shawn Anderson",
		"address": "300 East Mulberry St., Kokomo, IN 46901",
		"date": "5/12/2021",
		"lat": "40.4988",
		"long": "-86.1453"
	},
	{
		"id": "eb6fc98e-1594-4318-aee9-de07482bd250",
		"name": "Terre Haute RP Church",
		"denom": "RPCNA",
		"phone": "812-612-1646",
		"emai": "Info@TerreHauteRPC.org",
		"website": "https://www.TerreHauteRPC.com",
		"pastor": "Stephen Rhoda",
		"address": "1407 North 25th Street, Terre Haute, IN 47803",
		"date": "5/12/2021",
		"lat": "39.4657",
		"long": "-87.354"
	},
	{
		"id": "7d781f1f-27fd-4e8e-a47f-05366170bc9f",
		"name": "Westminster RP Church",
		"denom": "RPCNA",
		"phone": "847-634-3333",
		"emai": "admin@westminsterrpc.org",
		"website": "https://www.westminsterrpc.org",
		"pastor": "Vacant",
		"address": "16670 Easton Ave., Prairie View, IL 60069",
		"date": "5/12/2021",
		"lat": "42.1976",
		"long": "-87.9261"
	},
	{
		"id": "66d21d27-905c-4135-8ba8-b886d6a8d9ae",
		"name": "Casper Reformed Presbyterian Church",
		"denom": "RPCNA",
		"phone": "(812) 327-5267",
		"emai": "Casper.RPC@gmail.com",
		"website": "https://casperrpchurch.org",
		"pastor": "Bill Roberts - Interim",
		"address": "Evansville Community Center 71 Curtis Street, Evansville, WY 82636",
		"date": "5/12/2021",
		"lat": "42.8992",
		"long": "-106.1754"
	},
	{
		"id": "347f3558-631c-48b4-91ab-d7f3989a7d43",
		"name": "Christ Covenant RP Church",
		"denom": "RPCNA",
		"phone": "785-766-7796",
		"emai": "jmmlawrence@aol.com",
		"website": "https://christcovenantchurchrpc.org",
		"pastor": "John McFarland",
		"address": "2312 W Harvard Rd., Lawrence, KS 66049",
		"date": "5/12/2021",
		"lat": "38.9704",
		"long": "-95.2769"
	},
	{
		"id": "eded4ead-088b-4084-b02b-eaf67ea53790",
		"name": "Christ Presbyterian Church",
		"denom": "RPCNA",
		"phone": "(913) 206-3681",
		"emai": "pastor@cpc-kc.com",
		"website": "https://www.cpc-kc.com",
		"pastor": "Andrew Barnes",
		"address": "12708 US-71, Grandview, MO 64030",
		"date": "5/12/2021",
		"lat": "38.8819",
		"long": "-94.5205"
	},
	{
		"id": "c69e89be-3df4-45fe-8e84-e943a3ea384c",
		"name": "Clarinda RP Church",
		"denom": "RPCNA",
		"phone": "712-542-3169",
		"emai": "jackb51632@gmail.com",
		"website": "https://clarindarpchurch.wordpress.com",
		"pastor": "Jack Baumgardner",
		"address": "Grace Ministry Center, Reformed Presbyterian Church, 223 E. Washington Street, Clarinda, IA 51632",
		"date": "5/12/2021",
		"lat": "40.7491",
		"long": "-95.038"
	},
	{
		"id": "00d16b67-a04a-4504-a08d-80a83de2d0e4",
		"name": "Dallas Reformed Presbyterian Church",
		"denom": "RPCNA",
		"phone": "214-538-2297",
		"emai": "pastor@dallasrpc.org",
		"website": "https://www.dallasrpc.org",
		"pastor": "Romesh Prakashpalan",
		"address": "Victory Christian Church (back building) 1008 West Erwin Avenue, McKinney, TX 75069",
		"date": "5/12/2021",
		"lat": "33.1966",
		"long": "-96.6085"
	},
	{
		"id": "af829427-7d39-43cf-a48c-725b743d794e",
		"name": "Denison RP Church",
		"denom": "RPCNA",
		"phone": "785-935-2372",
		"emai": "mitzie.vanhorn@gmail.com",
		"website": "https://www.denisonrp.org",
		"pastor": "Caleb Allen",
		"address": "106 Seventh St., Denison, KS 66419",
		"date": "5/12/2021",
		"lat": "39.354",
		"long": "-95.6127"
	},
	{
		"id": "3e254e8f-e0f4-4162-84d5-1f72cffb191f",
		"name": "Grace Reformed Church",
		"denom": "RPCNA",
		"phone": "(573) 446-9270",
		"emai": "info@gracerpcna.org",
		"website": "https://www.gracerpcna.org",
		"pastor": "Gary McNamee",
		"address": "Meeting at: American Legion 3669 Legion Lane, Columbia, MO 65201",
		"date": "5/12/2021",
		"lat": "38.9382",
		"long": "-92.3049"
	},
	{
		"id": "9ec75936-b581-4a23-9b69-c7f75106c0eb",
		"name": "Hebron RP Church",
		"denom": "RPCNA",
		"phone": "785-630-8403",
		"emai": "info@claycenterreformed.org",
		"website": "https://www.claycenterreformed.org",
		"pastor": "Daniel Hemken",
		"address": "1328 Goodin Dr., Clay Center, KS 67432",
		"date": "5/12/2021",
		"lat": "39.3844",
		"long": "-97.1278"
	},
	{
		"id": "e89bcfb7-f5de-4121-a5cb-5270d4ac7a02",
		"name": "Laramie RP Church",
		"denom": "RPCNA",
		"phone": "307-761-3701",
		"emai": "Pastor@LaramieRPC.org",
		"website": "https://www.laramierpc.org",
		"pastor": "Derek Moore",
		"address": "Please contact Pastor Derek Moore for meeting location., Laramie, WY",
		"date": "5/12/2021"
	},
	{
		"id": "5e810409-7d8a-4c33-9796-bf475aefbe93",
		"name": "Living Way RP Church",
		"denom": "RPCNA",
		"phone": "(979) 450-3489",
		"emai": "livingwayrpc@gmail.com",
		"website": "https://www.livingwayrpc.org",
		"pastor": "Steve Rockhill",
		"address": "3141 Briarcrest Drive, Suite 518, Bryan, TX 77802",
		"date": "5/12/2021",
		"lat": "30.6582",
		"long": "-96.3351"
	},
	{
		"id": "d51508f3-8686-4101-8bbf-1339acfb5a93",
		"name": "Manhattan RP Church",
		"denom": "RPCNA",
		"phone": "785-789-4310",
		"emai": "contact@manhattanreformed.org",
		"website": "https://manhattanreformed.org",
		"pastor": "Jonathan Haney",
		"address": "Riley County Senior Center 301 N. 4th St., Manhattan, KS 66502",
		"date": "5/12/2021",
		"lat": "39.1938",
		"long": "-96.5858"
	},
	{
		"id": "c17b9db1-f09e-4909-94eb-7d7edff2e366",
		"name": "Minneola RP Church",
		"denom": "RPCNA",
		"phone": "620-885-4346",
		"emai": "djbartel965@gmail.com",
		"website": "https://sermonaudio.com/solo/minneola-rpc/",
		"pastor": "Dan Bartel",
		"address": "401 Maple Street, Minneola, KS 67865",
		"date": "5/12/2021",
		"lat": "37.4425",
		"long": "-100.0088"
	},
	{
		"id": "732dd556-7514-4bdf-a951-25579a80a50a",
		"name": "Quinter RP Church",
		"denom": "RPCNA",
		"phone": "719-839-0305",
		"emai": "m.thomassexton@gmail.com",
		"website": "https://www.quinter.rpc.org",
		"pastor": "Matthew Sexton",
		"address": "719 Gove St., Quinter, KS 67752",
		"date": "5/12/2021",
		"lat": "39.0363",
		"long": "-100.2337"
	},
	{
		"id": "d45213ef-b654-4865-98de-e3e1a20ab785",
		"name": "RP Church of San Antonio",
		"denom": "RPCNA",
		"phone": "(210) 347-5116",
		"emai": "sanantoniorpc@gmail.com",
		"website": "https://rpcsa.org",
		"pastor": "Jonathan B. Leach",
		"address": "Quality Inn 6755 North Loop 1604 West, San Antonio, TX 78209",
		"date": "5/12/2021",
		"lat": "29.4821",
		"long": "-98.4554"
	},
	{
		"id": "76b9ef92-dccb-4dac-916d-8fa94fbd62ca",
		"name": "Salt and Light RP Church",
		"denom": "RPCNA",
		"phone": "720-606-3438",
		"emai": "pastor@saltandlightrpchurch.org",
		"website": "https://saltandlightrpchurch.org",
		"pastor": "Marty Wilsey",
		"address": "9498 Anhawa Ave., Longmont, CO 80503",
		"date": "5/12/2021",
		"lat": "40.1559",
		"long": "-105.1624"
	},
	{
		"id": "4a814638-d54d-45f0-9761-67d5e74e6030",
		"name": "Sharon RP Church",
		"denom": "RPCNA",
		"phone": "(319) 217-2388",
		"emai": "johnroseleas@q.com",
		"website": "https://sharonrpc.org",
		"pastor": "Bryan Schneider",
		"address": "25204 160th Avenue, Morning Sun, IA 52640",
		"date": "5/12/2021",
		"lat": "41.0984",
		"long": "-91.2581"
	},
	{
		"id": "ad9c2112-a935-4419-b0da-65caac2fe1b2",
		"name": "Shawnee RP Church",
		"denom": "RPCNA",
		"phone": "913-631-1991",
		"emai": "info@shawneerpc.org",
		"website": "https://www.shawneerpc.org",
		"pastor": "Greg Stiner",
		"address": "6835 Pflumm Rd., Shawnee, KS 66216",
		"date": "5/12/2021",
		"lat": "39.0147",
		"long": "-94.7414"
	},
	{
		"id": "cbfd78f8-2ff2-4449-89c5-9ad531ca42c1",
		"name": "Springs Reformed Church",
		"denom": "RPCNA",
		"phone": "719-577-4157",
		"emai": "office@springsreformed.org",
		"website": "https://www.springsreformed.org",
		"pastor": "Jason Ryce",
		"address": "229 S. Weber St., Colorado Springs, CO 80903",
		"date": "5/12/2021",
		"lat": "38.8388",
		"long": "-104.8145"
	},
	{
		"id": "f6c96ab0-9bae-49f4-99f5-dc9dbe1b4af1",
		"name": "Sterling RP Church",
		"denom": "RPCNA",
		"phone": "620-278-3507",
		"emai": "info@sterlingchurch.org",
		"website": "https://www.sterlingchurch.org",
		"pastor": "Brian Wright",
		"address": "421 N. Eighth St., Sterling, KS 67579",
		"date": "5/12/2021",
		"lat": "38.2126",
		"long": "-98.2055"
	},
	{
		"id": "e76c249b-b087-4f9e-9229-4762338d474a",
		"name": "Stillwater RP Church",
		"denom": "RPCNA",
		"phone": "405-377-1689",
		"emai": "pastor@stillwaterrpc.org",
		"website": "https://www.stillwaterrpc.org",
		"pastor": "R. Bruce Parnell",
		"address": "1624 W. Lakeview Rd., Stillwater, OK 74074",
		"date": "5/12/2021",
		"lat": "36.1043",
		"long": "-97.0609"
	},
	{
		"id": "4898ef74-c015-4202-ba3d-7320428b999a",
		"name": "Topeka RP Church",
		"denom": "RPCNA",
		"phone": "785-272-1940",
		"emai": "brjusa@gmail.com",
		"website": "https://www.topekareformedpres.org",
		"pastor": "Brad Johnston",
		"address": "8345 SW 33rd St., Topeka, KS 66614",
		"date": "5/12/2021",
		"lat": "39.0154",
		"long": "-95.7469"
	},
	{
		"id": "90fd0511-2834-48fa-bdb2-c7f1329ff03a",
		"name": "Tri-Lakes Reformed Church",
		"denom": "RPCNA",
		"phone": "719-487-9299",
		"emai": "office@trilakesreformed.org",
		"website": "https://www.trilakesreformed.org",
		"pastor": "Joseph Friedly",
		"address": "1691 Woodmoor Drive, Suite 7, Monument, CO 80132",
		"date": "5/12/2021",
		"lat": "39.1007",
		"long": "-104.8542"
	},
	{
		"id": "2a738702-feaa-49a3-910e-0daa7668a77a",
		"name": "Trinity Reformed Church",
		"denom": "RPCNA",
		"phone": "316-285-0515",
		"emai": "pastor@trinityrpcna.org",
		"website": "https://www.trinityrpcna.org",
		"pastor": "Joe Allyn",
		"address": "3340 W Douglas Ave, Wichita, KS 67203",
		"date": "5/12/2021",
		"lat": "37.7048",
		"long": "-97.3638"
	},
	{
		"id": "e80fa366-6b7b-4a29-a2af-ef92587cddc2",
		"name": "Washington RP Church",
		"denom": "RPCNA",
		"phone": "319-653-3101",
		"emai": "daniel.drost@gordon.edu",
		"website": "https://www.wrpcna.org",
		"pastor": "Daniel Drost",
		"address": "500 S. Ave D., Washington, IA 52353",
		"date": "5/12/2021",
		"lat": "41.3015",
		"long": "-91.6987"
	},
	{
		"id": "2b3043da-ea72-4275-9fdb-e602fd6de96f",
		"name": "Westminster RP Church",
		"denom": "RPCNA",
		"phone": "303-469-0761",
		"emai": "shane.sapp@westminsterrpchurch.org",
		"website": "https://www.westminsterrpchurch.org",
		"pastor": "Shane Sapp",
		"address": "4455 W. 112th Ave., Westminster, CO 80031",
		"date": "5/12/2021",
		"lat": "39.8753",
		"long": "-105.0345"
	},
	{
		"id": "113d58b2-74b1-40e4-b486-b5dd5c156f6a",
		"name": "Winchester RP Church",
		"denom": "RPCNA",
		"phone": "(913) 774-4585",
		"emai": "kyle@winchesterrp.com",
		"website": "https://www.winchesterrp.com",
		"pastor": "Kyle Borg",
		"address": "306 Delaware St., Winchester, KS 66097",
		"date": "5/12/2021",
		"lat": "39.3245",
		"long": "-95.2696"
	},
	{
		"id": "051e7ea9-28da-4835-b40d-22ab5d01f8e1",
		"name": "All Saints RPC",
		"denom": "RPCNA",
		"phone": "714-404-9908",
		"emai": "Sawtelleboyz@yahoo.com",
		"website": "https://www.allsaintsreformed.org",
		"pastor": "John Sawtelle",
		"address": "Laurel Elementary School 200 South Flower Avenu., Brea, CA 92821",
		"date": "5/12/2021",
		"lat": "33.9291",
		"long": "-117.8845"
	},
	{
		"id": "6faf6f78-e10e-4f22-a80e-b08cf49c6036",
		"name": "All Saints RPC of Irvine",
		"denom": "RPCNA",
		"phone": "949-751-7816",
		"emai": "irvinerpc@gmail.com",
		"website": "https://www.asrpci.org",
		"pastor": "Hsing Tang",
		"address": "Northwood Community Center 4531 Bryan Ave, Irvine, CA 92620",
		"date": "5/12/2021",
		"lat": "33.7009",
		"long": "-117.7564"
	},
	null,
	{
		"id": "c9c618a6-11ca-456f-8af4-098cd2abdc32",
		"name": "First RP Church of Phoenix",
		"denom": "RPCNA",
		"phone": "856-297-5837",
		"emai": "Pastor@phoenixrpc.com",
		"website": "https://www.phoenixrpc.com",
		"pastor": "Chris Myers",
		"address": "1117 East Devonshire Ave., Phoenix, AZ 85014",
		"date": "5/12/2021",
		"lat": "33.5103",
		"long": "-112.0556"
	},
	{
		"id": "11f603f2-0f19-4305-87a9-3831f7255a42",
		"name": "Fresno RP Church",
		"denom": "RPCNA",
		"phone": "559-392-2139",
		"emai": "fresnorpchurch@gmail.com",
		"website": "https://www.fresnorpchurch.org",
		"pastor": "Vacant",
		"address": "380 N. Maple Avenue, Fresno, CA 93702",
		"date": "5/12/2021",
		"lat": "36.74",
		"long": "-119.7532"
	},
	{
		"id": "1824c751-2bfc-4969-9ccd-a119f17d2196",
		"name": "Great Basin RP Church",
		"denom": "RPCNA",
		"phone": "(775) 636-2703",
		"emai": "greatbasinrpc@gmail.com",
		"website": "https://www.greatbasinreformed.com",
		"pastor": "Colin Samul",
		"address": "Meeting at: Mt Rose Evangelical Free Church 9725 S Virginia Street, Reno, NV 89511",
		"date": "5/12/2021",
		"lat": "39.4151",
		"long": "-119.7668"
	},
	{
		"id": "397d38d5-4a1b-4e6b-9539-d09ef2fbf8e5",
		"name": "Las Vegas RP Church",
		"denom": "RPCNA",
		"phone": "702-907-LIFE (5433)",
		"emai": "lvrpcna@gmail.com",
		"website": "https://www.lasvegasreformedpresbyterianchurch.com",
		"pastor": "Contact: Sean",
		"address": "2800 W. Sahara Ave. #8A, Las Vegas, NV 89102",
		"date": "5/12/2021",
		"lat": "36.1433",
		"long": "-115.2004"
	},
	{
		"id": "7cb6098f-d524-4701-8f90-ca2fc09d0f84",
		"name": "North Shore Chinese Bible Truth Church",
		"denom": "RPCNA",
		"phone": "604.338.3106",
		"emai": "westvanrp@gmail.com",
		"website": "https://www.westvanrpc.org",
		"pastor": "",
		"address": "West Vancouver Presbyterian Church 2893 Marine Drive, West Vancouver, BC V7V 1M1",
		"date": "5/12/2021",
		"lat": "49.3271",
		"long": "-123.1578"
	},
	{
		"id": "376b8a63-64f8-48ff-82c6-776fe3a9721f",
		"name": "RP Church of Los Angeles",
		"denom": "RPCNA",
		"phone": "323-255-8757",
		"emai": "n.p.eshelman@gmail.com",
		"website": "https://www.rpcla.org",
		"pastor": "Nathan Eshelman",
		"address": "3557 Fletcher Dr., Los Angeles, CA",
		"date": "5/12/2021"
	},
	{
		"id": "76910907-5baf-4178-8325-0ca83d6b3cb7",
		"name": "San Diego RP Church",
		"denom": "RPCNA",
		"phone": "619-582-0940",
		"emai": "contact@sandiegorpc.org",
		"website": "https://www.sandiegorpc.org",
		"pastor": "Noah Shepherd",
		"address": "3495 College Avenu., San Diego, CA 92115",
		"date": "5/12/2021",
		"lat": "32.7607",
		"long": "-117.0721"
	},
	{
		"id": "30b2c07b-dc44-4ca2-97ea-a9009096480b",
		"name": "Seattle RP Church",
		"denom": "RPCNA",
		"phone": "206-522-3187",
		"emai": "pastorrmchemp@gmail.com",
		"website": "https://www.seattlerpchurch.org",
		"pastor": "Ryan Hemphill",
		"address": "6554 20th Avenue, N.E., Seattle, WA 98115",
		"date": "5/12/2021",
		"lat": "47.6849",
		"long": "-122.2968"
	},
	null,
	{
		"id": "80f550b2-2237-4e05-af88-f9d5548088fa",
		"name": "Christ Church RP",
		"denom": "RPCNA",
		"phone": "315-734-0568",
		"emai": "agoerner@adelphia.net",
		"website": "https://www.christchurchreformed.com",
		"pastor": "Aaron Goerner",
		"address": "8470 New Floyd Road, Rome, NY 13440",
		"date": "5/12/2021",
		"lat": "43.2193",
		"long": "-75.4498"
	},
	{
		"id": "cdcb76c1-fc6c-4d67-a3dd-59a36d096d17",
		"name": "Christian Heritage RP Church",
		"denom": "RPCNA",
		"phone": "607-205-0280",
		"emai": "doug@christianheritagerpc.org",
		"website": "https://www.christianheritagerpc.org",
		"pastor": "Doug Chamberlain",
		"address": "Meeting at: Wesley United Methodist Church 1000 Day Hollow Road, Endicott, NY 13760",
		"date": "5/12/2021",
		"lat": "42.1506",
		"long": "-76.0551"
	},
	{
		"id": "0572b261-7ebb-49cd-afc6-5c29a88c2b9c",
		"name": "Evangelical Presbyterian Church of Toronto",
		"denom": "RPCNA",
		"phone": "416-222-4131",
		"emai": "epctoronto@outlook.com",
		"website": "https://www.epctoronto.org",
		"pastor": "Allan MacLeod",
		"address": "10 Thomas Clark Way, Toronto, ON M2K 0G8, CANADA",
		"date": "5/12/2021",
		"lat": "43.7657",
		"long": "-79.3835"
	},
	{
		"id": "d5261e7e-e072-4ce9-8947-62f157e679e3",
		"name": "Fulton RP Church",
		"denom": "RPCNA",
		"phone": "(315) 402-8727",
		"emai": "Nickiamaio@gmail.com",
		"website": "https://www.fultonrpc.org",
		"pastor": "Don Pastor",
		"address": "207 South First St., Fulton, NY 13069",
		"date": "5/12/2021",
		"lat": "43.3211",
		"long": "-76.4034"
	},
	{
		"id": "e8e46758-dfb4-4aba-aac2-ab54e0e2b621",
		"name": "Hillside RP Church",
		"denom": "RPCNA",
		"phone": "613-256-2816",
		"emai": "mhdyck@rogers.com",
		"website": "https://www.hillsiderpc.ca",
		"pastor": "Matthew Dyck",
		"address": "273 Almonte St., Almonte, ON K0A 1A0",
		"date": "5/12/2021",
		"lat": "45.1953",
		"long": "-76.1496"
	},
	{
		"id": "14a865f7-40e3-4df9-b60c-72072367d030",
		"name": "Hudson/St. Lazare RP Church",
		"denom": "RPCNA",
		"phone": "1 514-447-3754",
		"emai": "info@rpcmontreal.org",
		"website": "https://www.rpcmontreal.org",
		"pastor": "Rev. Dan Dupuis",
		"address": "Eglise Baptiste Evangelique de Vaudreuil 90 Cite des Jeunes blvd., Vaudreuil-Dorion, QC J7V 8B9",
		"date": "5/12/2021",
		"lat": "45.4042",
		"long": "-74.034"
	},
	{
		"id": "52a9f11e-8b73-4cc3-8987-8be7db532d76",
		"name": "Lisbon RP Church",
		"denom": "RPCNA",
		"phone": "315-393-9041",
		"emai": "garrett.w.mann@gmail.com",
		"website": "https://www.lisbonrpc.org",
		"pastor": "Garrett Mann",
		"address": "291 Cemetery Rd., Ogdensburg, NY 13669",
		"date": "5/12/2021",
		"lat": "44.6902",
		"long": "-75.4774"
	},
	{
		"id": "f3d4ac5f-d55b-43a1-9e83-6545c55e8cdd",
		"name": "Messiahâ€™s Church",
		"denom": "RPCNA",
		"phone": "(315) 706-5900.",
		"emai": "briancoombs@me.com",
		"website": "https://www.messiahschurch.org",
		"pastor": "Brian E. Coombs",
		"address": "8181 Stearns Road, Clay, NY 13041",
		"date": "5/12/2021",
		"lat": "43.1737",
		"long": "-76.1707"
	},
	{
		"id": "a2e4edb6-1398-4949-98bd-b990259abb88",
		"name": "New Creation RP Church",
		"denom": "RPCNA",
		"phone": "519-578-7588",
		"emai": "pastorscottwilkinson@gmail.com",
		"website": "https://www.newcreationrpc.org",
		"pastor": "J. Scott Wilkinson",
		"address": "Scholars Hall 888 Trillium Dr., Kitchener, ON N2R 1K4",
		"date": "5/12/2021",
		"lat": "43.3965",
		"long": "-80.4575"
	},
	{
		"id": "e71d6114-5dda-40cc-a270-2161b9756f71",
		"name": "Oswego RP Church",
		"denom": "RPCNA",
		"phone": "315-343-7112",
		"emai": "pastor@oswegorpc.org",
		"website": "https://www.oswegorpc.org",
		"pastor": "Gabriel Wingfield",
		"address": "154 City Line Rd., Oswego, NY 13126",
		"date": "5/12/2021",
		"lat": "43.4394",
		"long": "-76.4613"
	},
	{
		"id": "cb16581d-7699-4c62-b665-da670b6e4fa2",
		"name": "Ottawa RP Church",
		"denom": "RPCNA",
		"phone": "613-596-5566",
		"emai": "rpc@rpcottawa.org",
		"website": "https://www.rpcottawa.org",
		"pastor": "Rev. Dr. Andrew Quigley",
		"address": "466 Woodland Ave., Ottawa, ON K2B 7B3",
		"date": "5/12/2021",
		"lat": "45.3679",
		"long": "-75.7888"
	},
	{
		"id": "b9c22c48-3e0f-4f7e-9138-8883ca5eb944",
		"name": "Rochester RP Church",
		"denom": "RPCNA",
		"phone": "724-747-8345",
		"emai": "info@rochesterrpc.com",
		"website": "https://www.rochesterrpc.com",
		"pastor": "Ryan Somerville",
		"address": "115 East Ave., East Rochester, NY 14445",
		"date": "5/12/2021",
		"lat": "43.1128",
		"long": "-77.4906"
	},
	{
		"id": "ebf2e48e-3d99-43bf-96ca-f51dbe5c27dd",
		"name": "Russell RP Church",
		"denom": "RPCNA",
		"phone": "613-445-1937",
		"emai": "mkingswood1@gmail.com",
		"website": "https://www.russellrpc.org",
		"pastor": "E. Matthew Kingswood",
		"address": "St. Joseph School (a French Catholic school) 1008 Russell Road North, Russell, ON K4R 1C9",
		"date": "5/12/2021",
		"lat": "45.2573",
		"long": "-75.3675"
	},
	{
		"id": "33b21664-8157-4f76-a089-95ebbb3d7a56",
		"name": "Syracuse RP Church",
		"denom": "RPCNA",
		"phone": "315-476-5618",
		"emai": "pastor@syracuserpc.org",
		"website": "https://www.syracuserpchurch.org",
		"pastor": "Jason Housewright",
		"address": "2517 South Salina St., Syracuse, NY 13205",
		"date": "5/12/2021",
		"lat": "43.0123",
		"long": "-76.1452"
	},
	{
		"id": "d281cef6-49a8-4a9e-b31c-54d74b760bfd",
		"name": "Higashisuma RP Church",
		"denom": "RPCNA",
		"phone": "078-731-5702",
		"emai": "rpkp99124@maia.eonet.ne.jp",
		"website": "https://church.ne.jp/rpchigashisuma/",
		"pastor": "Sumito Sakai",
		"address": "4-2-26 Oote-cho Suma-Ku, Kobe, Japan 654-0013",
		"date": "5/12/2021"
	},
	{
		"id": "b513d804-6d15-4697-9b71-a162628400d0",
		"name": "Kasumigaoka RP Church",
		"denom": "RPCNA",
		"phone": "078-707-2155",
		"emai": "yhirata0416@gmail.com",
		"website": "https://marokiwi.net/kasumi/",
		"pastor": "Yusuke Hirata",
		"address": "6-8-10 Kasumigaoka Tarumi-Ku, Kobe, Japan 655-0039",
		"date": "5/12/2021"
	},
	{
		"id": "cfeaae64-afd1-4954-a8e4-556cacda05af",
		"name": "Kita-Suzurandai Mission Station",
		"denom": "RPCNA",
		"phone": "078-592-6519",
		"emai": "katsunori.e.endo@gmail.com",
		"website": "",
		"pastor": "Katsunori Endo",
		"address": "1-4-10 Izumi-Dai Kita-Ku, Kobe, Japan 651-1141",
		"date": "5/12/2021"
	},
	{
		"id": "8d7ae944-f0f6-4bbd-a88b-99ddbefcbc2b",
		"name": "Mukonoso RP Church",
		"denom": "RPCNA",
		"phone": "06-6432-5343",
		"emai": "hkgenapomuko512@yahoo.co.jp",
		"website": "https://www.rpjapan.com",
		"pastor": "Hiroyuki Kanamori",
		"address": "3-26-5 Mukonoso, Amagasaki, Japan 661-0031",
		"date": "5/12/2021"
	},
	{
		"id": "5e1fac12-a8ed-48ba-8f05-fb1fbd48a95d",
		"name": "Okamoto Keiaku RP Church",
		"denom": "RPCNA",
		"phone": "078-452-5310",
		"emai": "stakiura@nifty.com",
		"website": "https://keiyaku.tea-nifty.com",
		"pastor": "Shigeru Takiura; Kihei Takiura",
		"address": "6-17-31 Motoyama, Kita-Machi Higashinada-K., Kobe, Japan 658-0003",
		"date": "5/12/2021"
	}
]
