[null,null,null,null,null,null,null,null,null,null,null,null,null,null,null,null,null,null,null,null,null,null,null,null,null,null,null,null,null,null,null,{"id":"49916bfd-3420-4e75-ac44-3748f07d876d","denom":"RPCNA","name":"All Saints RPC of Irvine","pastor":"Hsing Tang","phone":"949-751-7816","email":"irvinerpc@gmail.com","website":"http://www.asrpci.org","address":"Northwood Community Center 4531 Bryan Ave Irvine, CA 92620","date":"3/22/2021","lat":"33.7009","long":"-117.7564"},{"id":"46e59972-6379-4c78-b465-04095d805ff3","denom":"RPCNA","name":"All Saints RPC","pastor":"John Sawtelle","phone":"714-404-9908","email":"Sawtelleboyz@yahoo.com","website":"http://www.allsaintsreformed.org","address":"Laurel Elementary School 200 South Flower Avenue  Brea, CA 92821","date":"3/22/2021","lat":"33.9291","long":"-117.8845"},{"id":"d5cbb13c-d5c3-4a72-9966-3f3f556995ee","denom":"RPCNA","name":"Belle Center RP Church","pastor":"Philip Pockras","phone":"937-464-6851","email":"covvie@columbus.rr.com","website":"http://www.bcrpchurch.org","address":"102 E. Main St. Belle Center, OH 43310","date":"3/22/2021","lat":"40.5024","long":"-83.7688"},{"id":"38a5dbe3-2b8d-4c4d-bbd3-658c62179d4f","denom":"RPCNA","name":"Birmingham Reformed Presbyterian Church","pastor":"","phone":"662-418-0591","email":"birmingham.reformed@gmail.com","website":"http://birmingham-reformed.org","address":"Meeting at: 100 Chase Park S, Office Suite 220 Hoover, AL 35244","date":"3/22/2021","lat":"33.3538","long":"-86.8254"},{"id":"caf96232-c5f7-46ec-8948-41b71b678053","denom":"RPCNA","name":"Bloomington RP Church","pastor":"Rich Holdeman and Philip McCollum","phone":"812-339-1922","email":"rholdema@indiana.edu","website":"http://www.bloomingtonrpchurch.org","address":"302 E. First Street Bloomington, IN 47401","date":"3/22/2021","lat":"39.1401","long":"-86.5083"},{"id":"f2335179-d701-48e0-9c73-8336bf3f9bbc","denom":"RPCNA","name":"Casper Reformed Presbyterian Church","pastor":"Bill Roberts - Interim","phone":"(812) 327-5267","email":"Casper.RPC@gmail.com","website":"http://casperrpchurch.org","address":"Evansville Community Center  71 Curtis Street Evansville, WY 82636","date":"3/22/2021","lat":"42.8992","long":"-106.1754"},{"id":"85b72e14-c905-4a96-ab1d-c170a7de533a","denom":"RPCNA","name":"Christ Covenant RP Church","pastor":"John McFarland","phone":"785-766-7796","email":"jmmlawrence@aol.com","website":"http://christcovenantchurchrpc.org","address":"2312 W Harvard Rd.  Lawrence, KS 66049","date":"3/22/2021","lat":"38.9704","long":"-95.2769"},{"id":"02454eea-81b5-4973-b755-46116e7054b5","denom":"RPCNA","name":"Broomall RP Church","pastor":"Alex Tabaka","phone":"610-353-1371","email":"pastor@broomallrpc.org","website":"http://www.broomallrpc.org","address":"25 Lawrence Rd. Broomall, PA 19008","date":"3/22/2021","lat":"39.9747","long":"-75.3602"},{"id":"4f87526e-527c-4538-ad73-ea8f720cf1f6","denom":"RPCNA","name":"Christ Presbyterian Church","pastor":"Andrew Barnes","phone":"(913) 206-3681","email":"pastor@cpc-kc.com","website":"http://www.cpc-kc.com","address":"1016 Main St Grandview, MO 64030","date":"3/22/2021","lat":"38.8819","long":"-94.5205"},{"id":"15cacab4-2757-4d80-944e-7e36834af5a1","denom":"RPCNA","name":"Denison RP Church","pastor":"Caleb Allen","phone":"785-935-2372","email":"mitzie.vanhorn@gmail.com","website":"http://www.denisonrp.org","address":"106 Seventh St. Denison, KS 66419","date":"3/22/2021","lat":"39.354","long":"-95.6127"},{"id":"0f5ba0c9-5ccc-4e79-88fc-739734c73cb1","denom":"RPCNA","name":"Clarinda RP Church","pastor":"Jack Baumgardner","phone":"712-542-3169","email":"jackb51632@gmail.com","website":"http://clarindarpchurch.wordpress.com","address":"Grace Ministry Center, Reformed Presbyterian Church, 223 E. Washington Street Clarinda, IA 51632","date":"3/22/2021","lat":"40.7491","long":"-95.038"},{"id":"ce0a3537-37a8-47d1-9f2d-498a22767e25","denom":"RPCNA","name":"Coldenham-Newburgh RP Church","pastor":"vacant (Stated Supply) Zachary Dotson","phone":"845-564-3924","email":"pashafer@gmail.com","website":"http://coldenhamchurch.org","address":"469 Coldenham Rd.  Walden, NY 12586","date":"3/22/2021","lat":"41.5596","long":"-74.1764"},{"id":"04e2f1bc-273e-4ab3-941a-d89eca0855fe","denom":"RPCNA","name":"Covenant Reformed Presbyterian Church","pastor":"Vacant","phone":"330-554-4260","email":"clerk@covenantrpcohio.org","website":"http://covenantrpcohio.org","address":"8465 Bainbridge Rd (Meeting in the Burns-Lindow Building) Chagrin Falls, OH 44023","date":"3/22/2021","lat":"41.3872","long":"-81.3042"},{"id":"122f2e65-13ba-46bb-9494-01eab281fbdc","denom":"RPCNA","name":"Covenant RP Church of Meadville","pastor":"Gary Gunn","phone":"814-573-2787","email":"meadvillerpc@gmail.com","website":"http://www.meadvillerpc.org","address":"Meeting at Emmanuel United Church of Christ 30 Park Avenue Meadville, PA 16335","date":"3/22/2021","lat":"41.6338","long":"-80.1488"},{"id":"8dffcb2b-a2d1-4caa-8247-7fac46d813bc","denom":"RPCNA","name":"Christ RP Church","pastor":"Daniel Howe","phone":"401-709-4678","email":"pastor@christrpc.com","website":"http://www.christrpc.com  ","address":"Meeting at: St. Mary's Episcopal Church (side door) 81 Warren Ave. East Providence, RI 02914","date":"3/22/2021","lat":"41.8138","long":"-71.3688"},{"id":"8a1cca5d-6951-477b-ae95-5edcf417905a","denom":"RPCNA","name":"Covenant Fellowship RP Church","pastor":"Peter Smith","phone":"412-371-6118","email":"CovenantFellowshipRPCNA@gmail.com","website":"http://www.covenantfellowship.org","address":"1300 Swissvale Ave  Pittsburgh, PA 15221-1836","date":"3/22/2021","lat":"40.4346","long":"-79.8655"},{"id":"48c0f563-954a-4a65-abae-c225336ea8e1","denom":"RPCNA","name":"College Hill Reformed Church","pastor":"Titus Martin","phone":"724-384-1028","email":"info@collegehillreformed.com","website":"http://www.collegehillreformed.com","address":"3217 College Ave Beaver Falls, PA 15010","date":"3/22/2021","lat":"40.7687","long":"-80.3592"},{"id":"82ab4117-b4a5-4b88-8398-9406dd4c0a73","denom":"RPCNA","name":"Hetherton RP Church","pastor":"Raymond Morton","phone":"989-786-3188","email":"revmorton@frontier.com","website":"http://www.facebook.com/HethertonReformedPresbyterianChurch","address":"1200 Meridian Line Rd. Johannesburg, MI 49751","date":"3/22/2021","lat":"45.0152","long":"-84.3857"},{"id":"115cbdcf-0a7d-46fc-9064-a548b9f306e6","denom":"RPCNA","name":"First RP Church of Beaver Falls","pastor":"Matt Filbert","phone":"724-846-6877","email":"reformedmissions@gmail.com","website":"http://www.firstrpchurch.org","address":"209 Darlington Rd. Beaver Falls, PA 15010","date":"3/22/2021","lat":"40.7687","long":"-80.3592"},{"id":"1ccb93f7-8191-4182-9059-1ce9bda8a3aa","denom":"RPCNA","name":"Christ Church RP","pastor":"Jason O'Neill","phone":"317-456-2551","email":"pastor@ccrp.church","website":"http://www.ccrp.church","address":"5075 N. Raceway Road Indianapolis, IN 46234","date":"3/22/2021","lat":"39.8088","long":"-86.3163"},{"id":"ac77bcfd-5d27-4c17-9296-bb01187af358","denom":"RPCNA","name":"Christian Heritage RP Church","pastor":"Doug Chamberlain","phone":"607-205-0280","email":"doug@christianheritagerpc.org","website":"http://www.christianheritagerpc.org","address":"Meeting at: Wesley United Methodist Church 1000 Day Hollow Road Endicott, NY 13760","date":"3/22/2021","lat":"42.1506","long":"-76.0551"},{"id":"9433c11d-97f7-4309-b9ab-77265e212330","denom":"RPCNA","name":"Elkhart RP Church","pastor":"Wade Mann","phone":"574-293-1772","email":"wademann@elkhartrpc.org","website":"http://www.elkhartrpc.org","address":"2323 17th St Elkhart, IN 46517","date":"3/22/2021","lat":"41.6469","long":"-85.9728"},{"id":"c2c88b37-0224-454c-9a11-ca071c9accb2","denom":"RPCNA","name":"Atlanta RP (Mission) Church","pastor":"Dr. Frank J. Smith","phone":"770-241-3946","email":"franksmith76@gmail.com","website":"http://atlanta-rpc.org","address":"Meeting at: 574 Western Avenue NW Atlanta, GA 30314","date":"3/22/2021","lat":"33.7561","long":"-84.4255"},{"id":"9c37dc56-f3cd-4856-b28f-36f67365dd20","denom":"RPCNA","name":"First RP Church of Grand Rapids","pastor":"Craig Scott","phone":"616-644-3160","email":"craig.scott1560@hotmail.co.uk","website":"http://www.facebook.com/pages/First-RP-Church-Grand-Rapids-MI/126544054040330","address":"Puritan Reformed Theological Seminary 2965 Leonard Street NE Grand Rapids, MI 49525","date":"3/22/2021","lat":"43.0135","long":"-85.6027"},{"id":"d9db8f48-d607-4029-bb41-8887853d6d7b","denom":"RPCNA","name":"Grace Reformed Church","pastor":"Gary McNamee","phone":"(573) 446-9270","email":"info@gracerpcna.org","website":"http://www.gracerpcna.org","address":"Meeting at: American Legion 3669 Legion Lane Columbia, MO 65201","date":"3/22/2021","lat":"38.9382","long":"-92.3049"},{"id":"dc0bb6bc-ad01-4799-b528-bf55d35ea7ce","denom":"RPCNA","name":"Fulton RP Church","pastor":"Nicholas Iamaio","phone":"(315) 402-8727","email":"Nickiamaio@gmail.com","website":"http://www.fultonrpc.org","address":"207 South First St. Fulton, NY 13069","date":"3/22/2021","lat":"43.3211","long":"-76.4034"},{"id":"b80e45f5-f8e1-4b6d-ae80-b0d084e3e908","denom":"RPCNA","name":"First RP Church of Phoenix","pastor":"Chris Myers","phone":"856-297-5837","email":"Pastor@phoenixrpc.com","website":"http://www.phoenixrpc.com","address":"1117 East Devonshire Ave.  Phoenix, AZ 85014","date":"3/22/2021","lat":"33.5103","long":"-112.0556"},{"id":"7cce1225-94b3-4632-a88b-f69bba646156","denom":"RPCNA","name":"Eastvale RP Church","pastor":"Micah Ramsey","phone":"724-847-2080","email":"pastor.micah.ramsey@gmail.com","website":"http://sermonaudio.com/solo/eastvale/","address":"504 E Second Ave Beaver Falls, PA 15010","date":"3/22/2021","lat":"40.7687","long":"-80.3592"},{"id":"5969aed3-0d94-4b64-94c1-085d99307e30","denom":"RPCNA","name":"First RP Church of Cambridge","pastor":"Noah Bailey","phone":"617-864-3185","email":"Session@reformedprescambridge.com","website":"http://www.reformedprescambridge.com","address":"53 Antrim St. Cambridge, MA 02139","date":"3/22/2021","lat":"42.3647","long":"-71.1042"},{"id":"12e0e512-0798-4e77-b44e-f90a0d64e701","denom":"RPCNA","name":"Grace Presbyterian Church","pastor":"Trace Turner","phone":"814-237-2637","email":"gracepresbyterianstatecollege@gmail.com","website":"http://gracerpc.org","address":"370 Airport Rd.  State College, PA 16801","date":"3/22/2021","lat":"40.7925","long":"-77.8523"},{"id":"5a8bbe9d-75d5-4ca6-b7a3-3cea7509b66d","denom":"RPCNA","name":"Elkins Park RP Church","pastor":"John Edgar","phone":"215-460-2391","email":"pastor@elkinsparkchurch.com","website":"http://www.elkinsparkchurch.com","address":"901 Cypress Ave. Elkins Park, PA 19027","date":"3/22/2021","lat":"40.075","long":"-75.1315"},{"id":"75e8777e-0bbe-4f42-8d2d-47dd5f8cd3b0","denom":"RPCNA","name":"Christ Church RP","pastor":"Aaron Goerner","phone":"315-734-0568","email":"agoerner@adelphia.net","website":"http://www.christchurchreformed.com","address":"8470 New Floyd Road Rome, NY 13440","date":"3/22/2021","lat":"43.2193","long":"-75.4498"},{"id":"7fb5e675-54f0-4997-b7e7-9b56e9973f47","denom":"RPCNA","name":"Manhattan RP Church","pastor":"Jonathan Haney","phone":"785-477-8837","email":"pastor@manhattanreformed.org","website":"http://manhattanreformed.org","address":"Riley County Senior Center 301 N. 4th St. Manhattan, KS 66502","date":"3/22/2021","lat":"39.1938","long":"-96.5858"},{"id":"67d9753a-565f-44c2-aab5-918a0329392c","denom":"RPCNA","name":"Rose Point RP Church","pastor":"Charles Brown","phone":"724-924-9519","email":"cabrown@ymail.com","website":"http://rosepointrpc.org","address":"1166 Church Alley  New Castle, PA 16101","date":"3/22/2021","lat":"40.9922","long":"-80.3284"},{"id":"c042f063-9136-4ccc-8a02-0449f9e8a2c7","denom":"RPCNA","name":"Quinter RP Church","pastor":"Matthew Sexton","phone":"719-839-0305","email":"m.thomassexton@gmail.com","website":"http://www.quinter.rpc.org","address":"719 Gove St.  Quinter, KS 67752","date":"3/22/2021","lat":"39.0363","long":"-100.2337"},{"id":"f7dcafbf-fd3e-4864-b72c-a9ddd549f3ec","denom":"RPCNA","name":"Fresno RP Church","pastor":"Vacant","phone":"559-392-2139","email":"fresnorpchurch@gmail.com","website":"http://www.fresnorpchurch.org","address":"380 N. Maple Avenue Fresno, CA 93702","date":"3/22/2021","lat":"36.74","long":"-119.7532"},{"id":"6f3ab7a3-18da-41fc-99e4-10f2d3ad43fa","denom":"RPCNA","name":"RP Church of Lafayette","pastor":"Adam Niess","phone":"765-474-3307","email":"info@reformedlafayette.com, adamniess@reformedlafayette.com","website":"http://www.reformedlafayette.com","address":"1723 South 9th St. Lafayette, IN 47905","date":"3/22/2021","lat":"40.4001","long":"-86.8602"},{"id":"4e169792-84de-4b02-bfe2-0445dd8fbba4","denom":"RPCNA","name":"First RPC of Durham","pastor":"Kent Butterfield","phone":"919-908-8327","email":"kentbutterfield@yahoo.com","website":"http://www.firstrpcdurham.org","address":"1316 Watts St.  Durham, NC 27701","date":"3/22/2021","lat":"35.9967","long":"-78.8966"},{"id":"d40882c6-8016-4c13-b4ba-917d414204b0","denom":"RPCNA","name":"Rimersburg RP Church","pastor":"John W. Monger","phone":"814-229-9670","email":"johnwmonger@gmail.com","website":"http://www.facebook.com/RimersburgRPChurch/","address":"946 N. Main St.  Rimersburg, PA 16248","date":"3/22/2021","lat":"41.0411","long":"-79.5017"},{"id":"88dcc530-ee11-403a-a35a-8af73243b2d3","denom":"RPCNA","name":"Grace &amp; Truth RP Church","pastor":"Ryan Bever","phone":"434-509-8698","email":"info@GraceAndTruthRPC.org","website":"http://www.GraceAndTruthRPC.org","address":"Good Shepherd School 342 Neff Ave Harrisonburg, VA 22801","date":"3/22/2021","lat":"38.4489","long":"-78.8714"},{"id":"c3feed16-cea5-4ed0-9b54-3a47202a1360","denom":"RPCNA","name":"Rochester RP Church","pastor":"Ryan Somerville","phone":"724-747-8345","email":"info@rochesterrpc.com","website":"http://www.rochesterrpc.com","address":"115 East Ave. East Rochester, NY 14445","date":"3/22/2021","lat":"43.1128","long":"-77.4906"},{"id":"2f276e2a-974c-4828-98f5-a6e43c638746","denom":"RPCNA","name":"Springs Reformed Church","pastor":"Jason Ryce","phone":"719-577-4157","email":"office@springsreformed.org","website":"http://www.springsreformed.org","address":"229 S. Weber St. Colorado Springs, CO 80903","date":"3/22/2021","lat":"38.8388","long":"-104.8145"},{"id":"1c3d5f4f-94df-40f8-bcd7-9a35031bb870","denom":"RPCNA","name":"San Diego RP Church","pastor":"Noah Shepherd","phone":"619-582-0940","email":"contact@sandiegorpc.org","website":"http://www.sandiegorpc.org","address":"3495 College Avenue  San Diego, CA 92115","date":"3/22/2021","lat":"32.7607","long":"-117.0721"},{"id":"6b356a6e-fb62-45bd-9ea9-ddbf47c006a4","denom":"RPCNA","name":"RP Church of San Antonio","pastor":"Jonathan B. Leach","phone":"(210) 347-5116","email":"sanantoniorpc@gmail.com","website":"http://rpcsa.org","address":"Quality Inn 6755 North Loop 1604 West San Antonio, TX 78209","date":"3/22/2021","lat":"29.4821","long":"-98.4554"},{"id":"ba1ea791-5f86-4e5d-95fb-1bd43da6d403","denom":"RPCNA","name":"Tri-Lakes Reformed Church","pastor":"Joseph Friedly","phone":"719-487-9299","email":"office@trilakesreformed.org","website":"http://www.trilakesreformed.org","address":"1691 Woodmoor Drive, Suite 7 Monument, CO 80132","date":"3/22/2021","lat":"39.1007","long":"-104.8542"},{"id":"9d251d4d-e049-4546-80b9-15d449a044b8","denom":"RPCNA","name":"Sterling RP Church","pastor":"Brian Wright","phone":"620-278-3507","email":"info@sterlingchurch.org","website":"http://www.sterlingchurch.org","address":"421 N. Eighth St.  Sterling, KS 67579","date":"3/22/2021","lat":"38.2126","long":"-98.2055"},{"id":"679986f7-6df1-492e-b584-8949cc361b16","denom":"RPCNA","name":"Dallas Reformed Presbyterian Church","pastor":"Romesh Prakashpalan","phone":"214-538-2297","email":"pastor@dallasrpc.org","website":"http://www.dallasrpc.org","address":"Victory Christian Church (back building) 1008 West Erwin Avenue McKinney, TX 75069","date":"3/22/2021","lat":"33.1966","long":"-96.6085"},{"id":"1487d063-2f8e-44ea-8ac2-31935b3fc617","denom":"RPCNA","name":"Trinity RP Church","pastor":"Dr. Joel Wood","phone":"620-204-0222","email":"joelenochwood@gmail.com","website":"http://trinityrpc.org","address":"4515 Sandy Spring Road Burtonsville, MD 20866","date":"3/22/2021","lat":"39.0922","long":"-76.9339"},{"id":"552c498f-cbcc-492c-909f-db24bf788a23","denom":"RPCNA","name":"RP Church of North Hills","pastor":"Harry Metzger","phone":"412-486-1167","email":"RevHMetz@aol.com","website":"http://rpcnh.org","address":"606 Thompson Run Rd.  Pittsburgh, PA 15237","date":"3/22/2021","lat":"40.5488","long":"-80.0474"},{"id":"0a0622b2-1823-4709-8003-1ec50550190f","denom":"RPCNA","name":"Tusca Area RP Church","pastor":"Jonathan Watt","phone":"724-495-6811","email":"jwatt@geneva.edu","website":"http://www.tuscachurch.org","address":"Corner of Darlington and Chapel Rd. Beaver, PA 15009","date":"3/22/2021","lat":"40.6972","long":"-80.3365"},{"id":"eb6a7f7a-1529-477e-9d1b-68bd72f91d70","denom":"RPCNA","name":"Westminster RP Church","pastor":"Vacant","phone":"847-634-3333","email":"admin@westminsterrpc.org","website":"http://www.westminsterrpc.org","address":"16670 Easton Ave.  Prairie View, IL 60069","date":"3/22/2021","lat":"42.1976","long":"-87.9261"},{"id":"da9a2a06-ba88-4a23-8acd-12f2d9cf1c9a","denom":"RPCNA","name":"Southwest Ohio RP Church","pastor":"Dick Knodel","phone":"937-750-9459","email":"info@swohiorpc.org","website":"http://reformedohio.com","address":"Meeting at Mars Hill Academy 4230 Aero Drive Mason, OH 45040","date":"3/22/2021","lat":"39.3357","long":"-84.3149"},{"id":"191b48c4-e7b4-4e14-be50-3635ea277447","denom":"RPCNA","name":"Winchester RP Church","pastor":"Kyle Borg","phone":"(913) 774-4585","email":"kyle@winchesterrp.com","website":"http://www.winchesterrp.com","address":"306 Delaware St. Winchester, KS 66097","date":"3/22/2021","lat":"39.3245","long":"-95.2696"},{"id":"2f4ac773-5be4-4e1f-a629-4eb1aa337ec6","denom":"RPCNA","name":"Washington RP Church","pastor":"Daniel Drost","phone":"319-653-3101","email":"daniel.drost@gordon.edu","website":"http://www.wrpcna.org","address":"500 S. Ave D.  Washington, IA 52353","date":"3/22/2021","lat":"41.3015","long":"-91.6987"},{"id":"2e0c5040-c491-47b2-8a4b-10130e9ada1d","denom":"RPCNA","name":"White Lake RP Church","pastor":"David C. Coon","phone":"845-583-7082","email":"dcoon2@hvc.rr.com","website":"http://www.whitelakechurch.com","address":"6 Mattison Rd.  White Lake, NY 12786","date":"3/22/2021","lat":"41.6485","long":"-74.8654"},{"id":"97d8e704-0dc9-4769-8f37-67a5296ca3c8","denom":"RPCNA","name":"Westminster RP Church","pastor":"Shane Sapp","phone":"303-469-0761","email":"shane.sapp@westminsterrpchurch.org","website":"http://www.westminsterrpchurch.org","address":"4455 W. 112th Ave.  Westminster, CO 80031","date":"3/22/2021","lat":"39.8753","long":"-105.0345"},{"id":"4dd8de81-1737-4157-8e5e-4a87307e9096","denom":"RPCNA","name":"Seattle RP Church","pastor":"Ryan Hemphill","phone":"206-522-3187","email":"pastorrmchemp@gmail.com","website":"http://www.seattlerpchurch.org","address":"6554 20th Avenue, N.E.  Seattle, WA 98115","date":"3/22/2021","lat":"47.6849","long":"-122.2968"},{"id":"2dd24079-fce1-4000-a0b9-b32c312e706b","denom":"RPCNA","name":"Topeka RP Church","pastor":"Brad Johnston","phone":"785-272-1940","email":"brjusa@gmail.com","website":"http://www.topekareformedpres.org","address":"8345 SW 33rd St.  Topeka, KS 66614","date":"3/22/2021","lat":"39.0154","long":"-95.7469"},{"id":"19c70ae4-7ba0-414c-9fa0-c93830255aac","denom":"RPCNA","name":"Syracuse RP Church","pastor":"Jason Housewright","phone":"315-476-5618","email":"pastor@syracuserpc.org","website":"http://www.syracuserpchurch.org","address":"2517 South Salina St.  Syracuse, NY 13205","date":"3/22/2021","lat":"43.0123","long":"-76.1452"},{"id":"29220ba4-babf-48ba-b034-2bf89314767f","denom":"RPCNA","name":"Southfield RP Church","pastor":"Adam Kuehner","phone":"248-356-3932","email":"srpcinfo@reformed.com","website":"http://reformed.com","address":"26550 Evergreen Rd.  Southfield, MI 48076","date":"3/22/2021","lat":"42.4981","long":"-83.2058"},{"id":"62055c28-5d2d-4564-9c27-5e811fda4ef8","denom":"RPCNA","name":"Trinity Reformed Church","pastor":"Joe Allyn","phone":"316-285-0515","email":"pastor@trinityrpcna.org","website":"http://www.trinityrpcna.org","address":"3340 W Douglas Ave Wichita, KS 67203","date":"3/22/2021","lat":"37.7048","long":"-97.3638"},{"id":"80991506-fb3b-401b-832a-b9ce38565f22","denom":"RPCNA","name":"Salt and Light RP Church","pastor":"Marty Wilsey","phone":"720-606-3438","email":"pastor@saltandlightrpchurch.org","website":"http://saltandlightrpchurch.org","address":"9498 Anhawa Ave.  Longmont, CO 80503","date":"3/22/2021","lat":"40.1559","long":"-105.1624"},{"id":"85ad329b-23ca-47b2-bb89-e1736d2310c6","denom":"RPCNA","name":"Walton RP Church","pastor":"Jack McCready","phone":"607-865-6481","email":"pastor@waltonrpc.org","website":"http://www.waltonrpc.org","address":"East &amp; Bruce Sts.  Walton, NY 13856","date":"3/22/2021","lat":"42.1756","long":"-75.1532"}]